#BESTPOSA,USB3,0,63.5,FINESTEERING,2404,600395.000,02000000,cdba,18018;SOL_COMPUTED,PPP,51.07900042981,-114.13253412316,1113.9219,-16.6001,WGS84,0.0275,0.0276,0.0596,"TSTR",15.000,0.000,33,31,31,30,00,00,ff,37*75828cb7
#BESTPOSA,USB3,0,62.5,FINESTEERING,2404,600396.000,02000000,cdba,18018;SOL_COMPUTED,PPP,51.07900032566,-114.13253433712,1113.9457,-16.6001,WGS84,0.0275,0.0265,0.0590,"TSTR",16.000,0.000,33,31,31,30,00,00,ff,37*15af7635
#BESTPOSA,USB3,0,62.5,FINESTEERING,2404,600397.000,02000000,cdba,18018;SOL_COMPUTED,PPP,51.07900026761,-114.13253452516,1113.9635,-16.6001,WGS84,0.0276,0.0255,0.0585,"TSTR",17.000,0.000,33,31,31,30,00,00,ff,37*ba4c214c
#BESTPOSA,USB3,0,63.5,FINESTEERING,2404,600398.000,02000000,cdba,18018;SOL_COMPUTED,PPP,51.07900022078,-114.13253470091,1113.9789,-16.6001,WGS84,0.0277,0.0248,0.0583,"TSTR",18.000,0.000,33,31,31,30,00,00,ff,37*01f8bcc4
#BESTPOSA,USB3,0,63.5,FINESTEERING,2404,600399.000,02000000,cdba,18018;SOL_COMPUTED,PPP,51.07900017655,-114.13253479595,1113.9871,-16.6001,WGS84,0.0280,0.0243,0.0584,"TSTR",19.000,0.000,33,31,31,30,00,00,ff,37*a099b9fa
#BESTPOSA,USB3,0,64.0,FINESTEERING,2404,600400.000,02000000,cdba,18018;SOL_COMPUTED,PPP,51.07900015726,-114.13253486334,1113.9997,-16.6001,WGS84,0.0277,0.0238,0.0574,"TSTR",10.000,0.000,33,31,31,30,00,00,ff,37*2bb3272a
#BESTPOSA,USB3,0,47.5,FINESTEERING,2404,600401.000,02000000,cdba,18018;SOL_COMPUTED,PPP,51.07900018017,-114.13253483552,1114.0005,-16.6001,WGS84,0.0273,0.0239,0.0565,"TSTR",11.000,0.000,33,31,31,30,00,00,ff,37*bdf90b09
#BESTPOSA,USB3,0,47.5,FINESTEERING,2404,600402.000,02000000,cdba,18018;SOL_COMPUTED,PPP,51.07900021182,-114.13253478131,1114.0071,-16.6001,WGS84,0.0267,0.0241,0.0552,"TSTR",12.000,0.000,33,31,31,30,00,00,ff,37*cd88b9a8
#BESTPOSA,USB3,0,58.0,FINESTEERING,2404,600403.000,02000000,cdba,18018;SOL_COMPUTED,PPP,51.07900025139,-114.13253470130,1114.0104,-16.6001,WGS84,0.0259,0.0244,0.0534,"TSTR",13.000,0.000,33,31,31,30,00,00,ff,37*0840c34c
#BESTPOSA,USB3,0,60.0,FINESTEERING,2404,600404.000,02000000,cdba,18018;SOL_COMPUTED,PPP,51.07900031815,-114.13253460813,1114.0158,-16.6001,WGS84,0.0250,0.0248,0.0513,"TSTR",14.000,0.000,33,31,31,30,00,00,ff,37*245f9840
#BESTPOSA,USB3,0,62.0,FINESTEERING,2404,600405.000,02000000,cdba,18018;SOL_COMPUTED,PPP,51.07900036388,-114.13253453681,1114.0186,-16.6001,WGS84,0.0243,0.0252,0.0493,"TSTR",15.000,0.000,33,31,31,30,00,00,ff,37*11de6669
#BESTPOSA,USB3,0,59.0,FINESTEERING,2404,600406.000,02000000,cdba,18018;SOL_COMPUTED,PPP,51.07900040513,-114.13253445450,1114.0268,-16.6001,WGS84,0.0237,0.0257,0.0477,"TSTR",16.000,0.000,33,31,31,30,00,00,ff,37*a154ee2a
#BESTPOSA,USB3,0,59.0,FINESTEERING,2404,600407.000,02000000,cdba,18018;SOL_COMPUTED,PPP,51.07900043952,-114.13253440851,1114.0330,-16.6001,WGS84,0.0234,0.0261,0.0467,"TSTR",17.000,0.000,33,31,31,30,00,00,ff,37*8538b968
#BESTPOSA,USB3,0,61.5,FINESTEERING,2404,600408.000,02000000,cdba,18018;SOL_COMPUTED,PPP,51.07900044243,-114.13253435558,1114.0338,-16.6001,WGS84,0.0233,0.0264,0.0461,"TSTR",18.000,0.000,33,31,31,30,00,00,ff,37*14a1264e
#BESTPOSA,USB3,0,60.5,FINESTEERING,2404,600409.000,02000000,cdba,18018;SOL_COMPUTED,PPP,51.07900047798,-114.13253432496,1114.0331,-16.6001,WGS84,0.0233,0.0267,0.0460,"TSTR",9.000,0.000,33,31,31,30,00,00,ff,37*d7af6b5f
#BESTPOSA,USB3,0,60.5,FINESTEERING,2404,600410.000,02000000,cdba,18018;SOL_COMPUTED,PPP,51.07900049279,-114.13253434284,1114.0270,-16.6001,WGS84,0.0233,0.0268,0.0465,"TSTR",10.000,0.000,33,31,31,30,00,00,ff,37*a792034f
#BESTPOSA,USB3,0,45.5,FINESTEERING,2404,600411.000,02000000,cdba,18018;SOL_COMPUTED,PPP,51.07900050905,-114.13253436053,1114.0147,-16.6001,WGS84,0.0233,0.0269,0.0473,"TSTR",11.000,0.000,33,31,31,30,00,00,ff,37*164738bf
#BESTPOSA,USB3,0,45.5,FINESTEERING,2404,600412.000,02000000,cdba,18018;SOL_COMPUTED,PPP,51.07900051219,-114.13253439573,1113.9999,-16.6001,WGS84,0.0234,0.0271,0.0485,"TSTR",12.000,0.000,33,31,31,30,00,00,ff,37*543f8ed5
#BESTPOSA,USB3,0,64.0,FINESTEERING,2404,600413.000,02000000,cdba,18018;SOL_COMPUTED,PPP,51.07900053061,-114.13253442692,1113.9786,-16.6001,WGS84,0.0237,0.0274,0.0500,"TSTR",13.000,0.000,33,31,31,30,00,00,ff,37*43e85b83
#BESTPOSA,USB3,0,58.5,FINESTEERING,2404,600414.000,02000000,cdba,18018;SOL_COMPUTED,PPP,51.07900055788,-114.13253443343,1113.9588,-16.6001,WGS84,0.0240,0.0277,0.0517,"TSTR",14.000,0.000,33,31,31,30,00,00,ff,37*5a6924d7
#BESTPOSA,USB3,0,58.5,FINESTEERING,2404,600415.000,02000000,cdba,18018;SOL_COMPUTED,PPP,51.07900058255,-114.13253446362,1113.9375,-16.6001,WGS84,0.0244,0.0281,0.0534,"TSTR",15.000,0.000,33,31,31,30,00,00,ff,37*4d318d63
#BESTPOSA,USB3,0,60.0,FINESTEERING,2404,600416.000,02000000,cdba,18018;SOL_COMPUTED,PPP,51.07900061888,-114.13253450163,1113.9233,-16.6001,WGS84,0.0248,0.0285,0.0549,"TSTR",16.000,0.000,33,31,31,30,00,00,ff,37*236eaf35
#BESTPOSA,USB3,0,64.0,FINESTEERING,2404,600417.000,02000000,cdba,18018;SOL_COMPUTED,PPP,51.07900063022,-114.13253449151,1113.9093,-16.6001,WGS84,0.0253,0.0288,0.0560,"TSTR",17.000,0.000,33,31,31,30,00,00,ff,37*09194cf3
#BESTPOSA,USB3,0,64.0,FINESTEERING,2404,600418.000,02000000,cdba,18018;SOL_COMPUTED,PPP,51.07900064784,-114.13253450562,1113.9018,-16.6001,WGS84,0.0257,0.0291,0.0569,"TSTR",18.000,0.000,33,31,31,30,00,00,ff,37*8ed6ece4
#BESTPOSA,USB3,0,62.5,FINESTEERING,2404,600419.000,02000000,cdba,18018;SOL_COMPUTED,PPP,51.07900064633,-114.13253451705,1113.9011,-16.6001,WGS84,0.0260,0.0293,0.0575,"TSTR",19.000,0.000,33,31,31,30,00,00,ff,37*277aff23
#BESTPOSA,USB3,0,62.5,FINESTEERING,2404,600420.000,02000000,cdba,18018;SOL_COMPUTED,PPP,51.07900062891,-114.13253451724,1113.9025,-16.6001,WGS84,0.0258,0.0292,0.0572,"TSTR",10.000,0.000,33,31,31,30,00,00,ff,37*e10ed515
#BESTPOSA,USB3,0,51.5,FINESTEERING,2404,600421.000,02000000,cdba,18018;SOL_COMPUTED,PPP,51.07900062919,-114.13253454777,1113.9055,-16.6001,WGS84,0.0255,0.0290,0.0569,"TSTR",11.000,0.000,33,31,31,30,00,00,ff,37*5ad31f0e
#BESTPOSA,USB3,0,51.5,FINESTEERING,2404,600422.000,02000000,cdba,18018;SOL_COMPUTED,PPP,51.07900061649,-114.13253457405,1113.9094,-16.6001,WGS84,0.0251,0.0287,0.0564,"TSTR",12.000,0.000,33,31,31,30,00,00,ff,37*18ccd0bf
#BESTPOSA,USB3,0,56.5,FINESTEERING,2404,600423.000,02000000,cdba,18018;SOL_COMPUTED,PPP,51.07900060015,-114.13253460396,1113.9166,-16.6001,WGS84,0.0247,0.0283,0.0557,"TSTR",13.000,0.000,33,31,31,30,00,00,ff,37*dd5d5053
#BESTPOSA,USB3,0,63.0,FINESTEERING,2404,600424.000,02000000,cdba,18018;SOL_COMPUTED,PPP,51.07900057047,-114.13253464769,1113.9228,-16.6001,WGS84,0.0242,0.0279,0.0551,"TSTR",14.000,0.000,33,31,31,30,00,00,ff,37*cc8d7c6d
#BESTPOSA,USB3,0,63.0,FINESTEERING,2404,600425.000,02000000,cdba,18018;SOL_COMPUTED,PPP,51.07900054701,-114.13253469268,1113.9294,-16.6001,WGS84,0.0238,0.0276,0.0546,"TSTR",15.000,0.000,33,31,31,30,00,00,ff,37*45d6f818
#BESTPOSA,USB3,0,63.0,FINESTEERING,2404,600426.000,02000000,cdba,18018;SOL_COMPUTED,PPP,51.07900052087,-114.13253471048,1113.9375,-16.6001,WGS84,0.0236,0.0274,0.0543,"TSTR",16.000,0.000,33,31,31,30,00,00,ff,37*0f983c43
#BESTPOSA,USB3,0,63.0,FINESTEERING,2404,600427.000,02000000,cdba,18018;SOL_COMPUTED,PPP,51.07900051167,-114.13253474385,1113.9403,-16.6001,WGS84,0.0235,0.0273,0.0542,"TSTR",17.000,0.000,33,31,31,30,00,00,ff,37*d615b41e
#BESTPOSA,USB3,0,62.5,FINESTEERING,2404,600428.000,02000000,cdba,18018;SOL_COMPUTED,PPP,51.07900048694,-114.13253475054,1113.9467,-16.6001,WGS84,0.0237,0.0273,0.0544,"TSTR",18.000,0.000,33,31,31,30,00,00,ff,37*e2dbc9ec
#BESTPOSA,USB3,0,60.5,FINESTEERING,2404,600429.000,02000000,cdba,18018;SOL_COMPUTED,PPP,51.07900049063,-114.13253474885,1113.9502,-16.6001,WGS84,0.0236,0.0272,0.0542,"TSTR",9.000,0.000,33,31,31,30,00,00,ff,37*b55ad9dc
#BESTPOSA,USB3,0,60.5,FINESTEERING,2404,600430.000,02000000,cdba,18018;SOL_COMPUTED,PPP,51.07900046816,-114.13253472149,1113.9527,-16.6001,WGS84,0.0234,0.0267,0.0536,"TSTR",10.000,0.000,33,31,31,30,00,00,ff,37*3bf968ad
#BESTPOSA,USB3,0,42.5,FINESTEERING,2404,600431.000,02000000,cdba,18018;SOL_COMPUTED,PPP,51.07900047141,-114.13253469344,1113.9577,-16.6001,WGS84,0.0230,0.0260,0.0527,"TSTR",11.000,0.000,33,31,31,30,00,00,ff,37*fa4f2835
#BESTPOSA,USB3,0,42.5,FINESTEERING,2404,600432.000,02000000,cdba,18018;SOL_COMPUTED,PPP,51.07900044385,-114.13253465112,1113.9654,-16.6001,WGS84,0.0225,0.0250,0.0516,"TSTR",12.000,0.000,33,31,31,30,00,00,ff,37*5494a834
#BESTPOSA,USB3,0,59.5,FINESTEERING,2404,600433.000,02000000,cdba,18018;SOL_COMPUTED,PPP,51.07900041188,-114.13253460301,1113.9771,-16.6001,WGS84,0.0219,0.0237,0.0501,"TSTR",13.000,0.000,33,31,31,30,00,00,ff,37*252b7a42
#BESTPOSA,USB3,0,58.5,FINESTEERING,2404,600434.000,02000000,cdba,18018;SOL_COMPUTED,PPP,51.07900037893,-114.13253454471,1113.9871,-16.6001,WGS84,0.0214,0.0223,0.0487,"TSTR",14.000,0.000,33,31,31,30,00,00,ff,37*55dd29a1
#BESTPOSA,USB3,0,58.0,FINESTEERING,2404,600435.000,02000000,cdba,18018;SOL_COMPUTED,PPP,51.07900035625,-114.13253449882,1113.9986,-16.6001,WGS84,0.0210,0.0210,0.0474,"TSTR",15.000,0.000,33,31,31,30,00,00,ff,37*29382b74
#BESTPOSA,USB3,0,58.0,FINESTEERING,2404,600436.000,02000000,cdba,18018;SOL_COMPUTED,PPP,51.07900033981,-114.13253446495,1114.0078,-16.6001,WGS84,0.0208,0.0200,0.0466,"TSTR",16.000,0.000,33,31,31,30,00,00,ff,37*9b9ae584
#BESTPOSA,USB3,0,59.0,FINESTEERING,2404,600437.000,02000000,cdba,18018;SOL_COMPUTED,PPP,51.07900034176,-114.13253443173,1114.0122,-16.6001,WGS84,0.0209,0.0194,0.0462,"TSTR",17.000,0.000,33,31,31,30,00,00,ff,37*9196359a
#BESTPOSA,USB3,0,59.0,FINESTEERING,2404,600438.000,02000000,cdba,18018;SOL_COMPUTED,PPP,51.07900032192,-114.13253441337,1114.0182,-16.6001,WGS84,0.0210,0.0191,0.0461,"TSTR",18.000,0.000,33,31,31,30,00,00,ff,37*84ed5f1c
#BESTPOSA,USB3,0,59.5,FINESTEERING,2404,600439.000,02000000,cdba,18018;SOL_COMPUTED,PPP,51.07900030697,-114.13253442736,1114.0195,-16.6001,WGS84,0.0214,0.0192,0.0464,"TSTR",19.000,0.000,33,31,31,30,00,00,ff,37*67ad0f6c
#BESTPOSA,USB3,0,60.0,FINESTEERING,2404,600440.000,02000000,cdba,18018;SOL_COMPUTED,PPP,51.07900031382,-114.13253442074,1114.0184,-16.6001,WGS84,0.0212,0.0191,0.0460,"TSTR",10.000,0.000,33,31,31,30,00,00,ff,37*d926d39c
#BESTPOSA,USB3,0,42.0,FINESTEERING,2404,600441.000,02000000,cdba,18018;SOL_COMPUTED,PPP,51.07900033548,-114.13253444599,1114.0162,-16.6001,WGS84,0.0209,0.0189,0.0456,"TSTR",11.000,0.000,33,31,31,30,00,00,ff,37*ce9239ff
#BESTPOSA,USB3,0,42.0,FINESTEERING,2404,600442.000,02000000,cdba,18018;SOL_COMPUTED,PPP,51.07900034016,-114.13253447193,1114.0128,-16.6001,WGS84,0.0205,0.0186,0.0451,"TSTR",12.000,0.000,33,31,31,30,00,00,ff,37*0a6faf90
#BESTPOSA,USB3,0,57.0,FINESTEERING,2404,600443.000,02000000,cdba,18018;SOL_COMPUTED,PPP,51.07900037031,-114.13253448076,1114.0092,-16.6001,WGS84,0.0201,0.0183,0.0444,"TSTR",13.000,0.000,33,31,31,30,00,00,ff,37*079c368b
#BESTPOSA,USB3,0,59.5,FINESTEERING,2404,600444.000,02000000,cdba,18018;SOL_COMPUTED,PPP,51.07900039268,-114.13253449402,1114.0044,-16.6001,WGS84,0.0197,0.0180,0.0437,"TSTR",14.000,0.000,33,31,31,30,00,00,ff,37*e0dfe0ab
#BESTPOSA,USB3,0,61.0,FINESTEERING,2404,600445.000,02000000,cdba,18018;SOL_COMPUTED,PPP,51.07900041752,-114.13253451212,1114.0037,-16.6001,WGS84,0.0194,0.0178,0.0432,"TSTR",15.000,0.000,33,31,31,30,00,00,ff,37*c9a4696d
#BESTPOSA,USB3,0,62.0,FINESTEERING,2404,600446.000,02000000,cdba,18018;SOL_COMPUTED,PPP,51.07900042903,-114.13253452022,1114.0035,-16.6001,WGS84,0.0193,0.0178,0.0430,"TSTR",16.000,0.000,33,31,31,30,00,00,ff,37*102cacdc
#BESTPOSA,USB3,0,62.0,FINESTEERING,2404,600447.000,02000000,cdba,18018;SOL_COMPUTED,PPP,51.07900045405,-114.13253454391,1113.9992,-16.6001,WGS84,0.0194,0.0179,0.0430,"TSTR",17.000,0.000,32,31,31,30,00,00,ff,37*fb393beb
#BESTPOSA,USB3,0,62.0,FINESTEERING,2404,600448.000,02000000,cdba,18018;SOL_COMPUTED,PPP,51.07900045469,-114.13253455979,1114.0002,-16.6001,WGS84,0.0196,0.0180,0.0432,"TSTR",18.000,0.000,32,31,31,30,00,00,ff,37*b29a9ee2
#BESTPOSA,USB3,0,60.0,FINESTEERING,2404,600449.000,02000000,cdba,18018;SOL_COMPUTED,PPP,51.07900046933,-114.13253457640,1114.0001,-16.6001,WGS84,0.0199,0.0183,0.0435,"TSTR",19.000,0.000,32,31,31,30,00,00,ff,37*814399e8
#BESTPOSA,USB3,0,60.0,FINESTEERING,2404,600450.000,02000000,cdba,18018;SOL_COMPUTED,PPP,51.07900045185,-114.13253454770,1114.0006,-16.6001,WGS84,0.0201,0.0184,0.0437,"TSTR",10.000,0.000,32,31,31,30,00,00,ff,37*77eb1665
#BESTPOSA,USB3,0,62.0,FINESTEERING,2404,600451.000,02000000,cdba,18018;SOL_COMPUTED,PPP,51.07900044560,-114.13253454939,1113.9991,-16.6001,WGS84,0.0200,0.0181,0.0434,"TSTR",11.000,0.000,32,31,31,30,00,00,ff,37*010fc437
#BESTPOSA,USB3,0,44.5,FINESTEERING,2404,600452.000,02000000,cdba,18018;SOL_COMPUTED,PPP,51.07900044670,-114.13253456358,1113.9963,-16.6001,WGS84,0.0198,0.0178,0.0431,"TSTR",12.000,0.000,32,31,31,30,00,00,ff,37*79e4ba95
#BESTPOSA,USB3,0,44.5,FINESTEERING,2404,600453.000,02000000,cdba,18018;SOL_COMPUTED,PPP,51.07900044155,-114.13253456048,1113.9963,-16.6001,WGS84,0.0196,0.0173,0.0428,"TSTR",13.000,0.000,32,31,31,30,00,00,ff,37*15153467
#BESTPOSA,USB3,0,59.5,FINESTEERING,2404,600454.000,02000000,cdba,18018;SOL_COMPUTED,PPP,51.07900043233,-114.13253458269,1113.9976,-16.6001,WGS84,0.0194,0.0168,0.0424,"TSTR",14.000,0.000,32,31,31,30,00,00,ff,37*8ea89780
#BESTPOSA,USB3,0,59.5,FINESTEERING,2404,600455.000,02000000,cdba,18018;SOL_COMPUTED,PPP,51.07900040940,-114.13253459347,1113.9954,-16.6001,WGS84,0.0193,0.0164,0.0422,"TSTR",15.000,0.000,32,31,31,30,00,00,ff,37*c6394bbd
#BESTPOSA,USB3,0,63.5,FINESTEERING,2404,600456.000,02000000,cdba,18018;SOL_COMPUTED,PPP,51.07900041990,-114.13253461190,1113.9958,-16.6001,WGS84,0.0194,0.0161,0.0421,"TSTR",16.000,0.000,32,31,31,30,00,00,ff,37*f7b9ed49
#BESTPOSA,USB3,0,63.5,FINESTEERING,2404,600457.000,02000000,cdba,18018;SOL_COMPUTED,PPP,51.07900041813,-114.13253463609,1113.9942,-16.6001,WGS84,0.0197,0.0159,0.0423,"TSTR",17.000,0.000,32,31,31,30,00,00,ff,37*4edae27a
#BESTPOSA,USB3,0,63.5,FINESTEERING,2404,600458.000,02000000,cdba,18018;SOL_COMPUTED,PPP,51.07900039987,-114.13253462659,1113.9936,-16.6001,WGS84,0.0200,0.0160,0.0426,"TSTR",18.000,0.000,32,31,31,30,00,00,ff,37*ccf9c1f1
#BESTPOSA,USB3,0,64.0,FINESTEERING,2404,600459.000,02000000,cdba,18018;SOL_COMPUTED,PPP,51.07900038593,-114.13253463010,1113.9928,-16.6001,WGS84,0.0204,0.0161,0.0430,"TSTR",19.000,0.000,32,31,31,30,00,00,ff,37*3f9a36e9
#BESTPOSA,USB3,0,64.5,FINESTEERING,2404,600460.000,02000000,cdba,18018;SOL_COMPUTED,PPP,51.07900038131,-114.13253462267,1113.9944,-16.6001,WGS84,0.0208,0.0164,0.0436,"TSTR",20.000,0.000,32,31,31,30,00,00,ff,37*f1994053
#BESTPOSA,USB3,0,56.0,FINESTEERING,2404,600461.000,02000000,cdba,18018;SOL_COMPUTED,PPP,51.07900036610,-114.13253462034,1113.9932,-16.6001,WGS84,0.0207,0.0164,0.0435,"TSTR",11.000,0.000,32,31,31,30,00,00,ff,37*f3cd3046
#BESTPOSA,USB3,0,44.0,FINESTEERING,2404,600462.000,02000000,cdba,18018;SOL_COMPUTED,PPP,51.07900036215,-114.13253461928,1113.9940,-16.6001,WGS84,0.0206,0.0165,0.0434,"TSTR",12.000,0.000,32,31,31,30,00,00,ff,37*d08e1f47
#BESTPOSA,USB3,0,44.0,FINESTEERING,2404,600463.000,02000000,cdba,18018;SOL_COMPUTED,PPP,51.07900036455,-114.13253463000,1113.9942,-16.6001,WGS84,0.0204,0.0166,0.0434,"TSTR",13.000,0.000,32,31,31,30,00,00,ff,37*fd39ed52
#BESTPOSA,USB3,0,58.0,FINESTEERING,2404,600464.000,02000000,cdba,18018;SOL_COMPUTED,PPP,51.07900037437,-114.13253463413,1113.9934,-16.6001,WGS84,0.0204,0.0168,0.0435,"TSTR",14.000,0.000,32,31,31,30,00,00,ff,37*1c65b0a7
#BESTPOSA,USB3,0,58.0,FINESTEERING,2404,600465.000,02000000,cdba,18018;SOL_COMPUTED,PPP,51.07900036079,-114.13253463768,1113.9925,-16.6001,WGS84,0.0203,0.0171,0.0438,"TSTR",15.000,0.000,32,31,31,30,00,00,ff,37*4c91b785
#BESTPOSA,USB3,0,60.5,FINESTEERING,2404,600466.000,02000000,cdba,18018;SOL_COMPUTED,PPP,51.07900034807,-114.13253465363,1113.9921,-16.6001,WGS84,0.0205,0.0175,0.0442,"TSTR",16.000,0.000,32,31,31,30,00,00,ff,37*9cddbcd8
#BESTPOSA,USB3,0,60.5,FINESTEERING,2404,600467.000,02000000,cdba,18018;SOL_COMPUTED,PPP,51.07900033425,-114.13253465449,1113.9919,-16.6001,WGS84,0.0207,0.0179,0.0447,"TSTR",17.000,0.000,32,31,31,30,00,00,ff,37*ff2b3929
#BESTPOSA,USB3,0,60.5,FINESTEERING,2404,600468.000,02000000,cdba,18018;SOL_COMPUTED,PPP,51.07900032848,-114.13253465610,1113.9923,-16.6001,WGS84,0.0210,0.0184,0.0453,"TSTR",18.000,0.000,32,31,31,30,00,00,ff,37*ada0bb59
#BESTPOSA,USB3,0,61.5,FINESTEERING,2404,600469.000,02000000,cdba,18018;SOL_COMPUTED,PPP,51.07900031363,-114.13253465954,1113.9938,-16.6001,WGS84,0.0214,0.0188,0.0458,"TSTR",19.000,0.000,32,31,31,30,00,00,ff,37*3d71c0f5
#BESTPOSA,USB3,0,59.0,FINESTEERING,2404,600470.000,02000000,cdba,18018;SOL_COMPUTED,PPP,51.07900031831,-114.13253465530,1113.9920,-16.6001,WGS84,0.0218,0.0192,0.0464,"TSTR",20.000,0.000,32,31,31,30,00,00,ff,37*de8c5971
#BESTPOSA,USB3,0,56.5,FINESTEERING,2404,600471.000,02000000,cdba,18018;SOL_COMPUTED,PPP,51.07900030770,-114.13253463415,1113.9922,-16.6001,WGS84,0.0220,0.0193,0.0466,"TSTR",11.000,0.000,32,31,31,30,00,00,ff,37*027c5e0e
#BESTPOSA,USB3,0,54.0,FINESTEERING,2404,600472.000,02000000,cdba,18018;SOL_COMPUTED,PPP,51.07900031836,-114.13253464195,1113.9905,-16.6001,WGS84,0.0218,0.0191,0.0464,"TSTR",12.000,0.000,32,31,31,30,00,00,ff,37*72d57aef
#BESTPOSA,USB3,0,46.0,FINESTEERING,2404,600473.000,02000000,cdba,18018;SOL_COMPUTED,PPP,51.07900032307,-114.13253464749,1113.9894,-16.6001,WGS84,0.0216,0.0189,0.0460,"TSTR",13.000,0.000,32,31,31,30,00,00,ff,37*94e7df81
#BESTPOSA,USB3,0,46.0,FINESTEERING,2404,600474.000,02000000,cdba,18018;SOL_COMPUTED,PPP,51.07900033376,-114.13253463990,1113.9859,-16.6001,WGS84,0.0214,0.0186,0.0455,"TSTR",14.000,0.000,32,31,31,30,00,00,ff,37*b8bb8dc2
#BESTPOSA,USB3,0,58.0,FINESTEERING,2404,600475.000,02000000,cdba,18018;SOL_COMPUTED,PPP,51.07900033143,-114.13253465555,1113.9826,-16.6001,WGS84,0.0211,0.0182,0.0451,"TSTR",15.000,0.000,32,31,31,30,00,00,ff,37*4ae1bd95
#BESTPOSA,USB3,0,58.0,FINESTEERING,2404,600476.000,02000000,cdba,18018;SOL_COMPUTED,PPP,51.07900032981,-114.13253464205,1113.9821,-16.6001,WGS84,0.0210,0.0179,0.0447,"TSTR",16.000,0.000,32,31,31,30,00,00,ff,37*e7fdeca6
#BESTPOSA,USB3,0,61.5,FINESTEERING,2404,600477.000,02000000,cdba,18018;SOL_COMPUTED,PPP,51.07900032109,-114.13253466473,1113.9777,-16.6001,WGS84,0.0210,0.0178,0.0445,"TSTR",17.000,0.000,32,31,31,30,00,00,ff,37*c0af57f4
#BESTPOSA,USB3,0,59.5,FINESTEERING,2404,600478.000,02000000,cdba,18018;SOL_COMPUTED,PPP,51.07900032375,-114.13253467053,1113.9753,-16.6001,WGS84,0.0211,0.0177,0.0445,"TSTR",18.000,0.000,32,31,31,30,00,00,ff,37*2a76119c
#BESTPOSA,USB3,0,59.5,FINESTEERING,2404,600479.000,02000000,cdba,18018;SOL_COMPUTED,PPP,51.07900031836,-114.13253466608,1113.9754,-16.6001,WGS84,0.0214,0.0178,0.0447,"TSTR",19.000,0.000,32,31,31,30,00,00,ff,37*5c9290b8
#BESTPOSA,USB3,0,60.0,FINESTEERING,2404,600480.000,02000000,cdba,18018;SOL_COMPUTED,PPP,51.07900032299,-114.13253467121,1113.9698,-16.6001,WGS84,0.0212,0.0175,0.0442,"TSTR",10.000,0.000,32,31,31,30,00,00,ff,37*e8b993ff
#BESTPOSA,USB3,0,52.0,FINESTEERING,2404,600481.000,02000000,cdba,18018;SOL_COMPUTED,PPP,51.07900033292,-114.13253466741,1113.9674,-16.6001,WGS84,0.0209,0.0173,0.0437,"TSTR",11.000,0.000,32,31,31,30,00,00,ff,37*5cae8d46
#BESTPOSA,USB3,0,52.0,FINESTEERING,2404,600482.000,02000000,cdba,18018;SOL_COMPUTED,PPP,51.07900034123,-114.13253466677,1113.9647,-16.6001,WGS84,0.0206,0.0170,0.0431,"TSTR",12.000,0.000,32,31,31,30,00,00,ff,37*20e923c4
#BESTPOSA,USB3,0,57.0,FINESTEERING,2404,600483.000,02000000,cdba,18018;SOL_COMPUTED,PPP,51.07900035469,-114.13253466748,1113.9591,-16.6001,WGS84,0.0203,0.0166,0.0424,"TSTR",13.000,0.000,32,31,31,30,00,00,ff,37*1a01a363
#BESTPOSA,USB3,0,61.0,FINESTEERING,2404,600484.000,02000000,cdba,18018;SOL_COMPUTED,PPP,51.07900036573,-114.13253466221,1113.9541,-16.6001,WGS84,0.0200,0.0162,0.0416,"TSTR",14.000,0.000,32,31,31,30,00,00,ff,37*76455783
#BESTPOSA,USB3,0,61.0,FINESTEERING,2404,600485.000,02000000,cdba,18018;SOL_COMPUTED,PPP,51.07900036370,-114.13253465913,1113.9497,-16.6001,WGS84,0.0199,0.0160,0.0410,"TSTR",15.000,0.000,32,31,31,30,00,00,ff,37*6158745c
#BESTPOSA,USB3,0,61.0,FINESTEERING,2404,600486.000,02000000,cdba,18018;SOL_COMPUTED,PPP,51.07900036327,-114.13253463267,1113.9462,-16.6001,WGS84,0.0199,0.0158,0.0406,"TSTR",16.000,0.000,32,31,31,30,00,00,ff,37*59a8de1c
#BESTPOSA,USB3,0,60.0,FINESTEERING,2404,600487.000,02000000,cdba,18018;SOL_COMPUTED,PPP,51.07900035620,-114.13253460514,1113.9427,-16.6001,WGS84,0.0200,0.0159,0.0406,"TSTR",17.000,0.000,32,31,31,30,00,00,ff,37*e239bbff
#BESTPOSA,USB3,0,60.0,FINESTEERING,2404,600488.000,02000000,cdba,18018;SOL_COMPUTED,PPP,51.07900034413,-114.13253461302,1113.9397,-16.6001,WGS84,0.0203,0.0160,0.0407,"TSTR",18.000,0.000,32,31,31,30,00,00,ff,37*4ed583a8
#BESTPOSA,USB3,0,58.0,FINESTEERING,2404,600489.000,02000000,cdba,18018;SOL_COMPUTED,PPP,51.07900036139,-114.13253459884,1113.9403,-16.6001,WGS84,0.0207,0.0163,0.0410,"TSTR",19.000,0.000,32,31,31,30,00,00,ff,37*276f9781
#BESTPOSA,USB3,0,58.0,FINESTEERING,2404,600490.000,02000000,cdba,18018;SOL_COMPUTED,PPP,51.07900037931,-114.13253461056,1113.9418,-16.6001,WGS84,0.0204,0.0161,0.0408,"TSTR",10.000,0.000,32,31,31,30,00,00,ff,37*b6e0089d
#BESTPOSA,USB3,0,50.5,FINESTEERING,2404,600491.000,02000000,cdba,18018;SOL_COMPUTED,PPP,51.07900039668,-114.13253461475,1113.9505,-16.6001,WGS84,0.0201,0.0158,0.0404,"TSTR",11.000,0.000,32,31,31,30,00,00,ff,37*1d1a50e3
#BESTPOSA,USB3,0,50.5,FINESTEERING,2404,600492.000,02000000,cdba,18018;SOL_COMPUTED,PPP,51.07900043198,-114.13253464068,1113.9607,-16.6001,WGS84,0.0197,0.0155,0.0400,"TSTR",12.000,0.000,32,31,31,30,00,00,ff,37*169eefaa
#BESTPOSA,USB3,0,56.0,FINESTEERING,2404,600493.000,02000000,cdba,18018;SOL_COMPUTED,PPP,51.07900046833,-114.13253466321,1113.9746,-16.6001,WGS84,0.0193,0.0152,0.0395,"TSTR",13.000,0.000,32,31,31,30,00,00,ff,37*9bc393eb
#BESTPOSA,USB3,0,59.0,FINESTEERING,2404,600494.000,02000000,cdba,18018;SOL_COMPUTED,PPP,51.07900050149,-114.13253469306,1113.9902,-16.6001,WGS84,0.0188,0.0148,0.0390,"TSTR",14.000,0.000,32,31,31,30,00,00,ff,37*c97dbfcf
#BESTPOSA,USB3,0,59.0,FINESTEERING,2404,600495.000,02000000,cdba,18018;SOL_COMPUTED,PPP,51.07900053478,-114.13253473653,1114.0060,-16.6001,WGS84,0.0185,0.0146,0.0387,"TSTR",15.000,0.000,32,31,31,30,00,00,ff,37*46d2b91d
#BESTPOSA,USB3,0,61.5,FINESTEERING,2404,600496.000,02000000,cdba,18018;SOL_COMPUTED,PPP,51.07900054804,-114.13253476431,1114.0211,-16.6001,WGS84,0.0184,0.0145,0.0386,"TSTR",16.000,0.000,32,31,31,30,00,00,ff,37*cd63fefb
#BESTPOSA,USB3,0,59.5,FINESTEERING,2404,600497.000,02000000,cdba,18018;SOL_COMPUTED,PPP,51.07900057315,-114.13253477911,1114.0293,-16.6001,WGS84,0.0184,0.0145,0.0388,"TSTR",17.000,0.000,32,31,31,30,00,00,ff,37*4e24b33a
#BESTPOSA,USB3,0,58.0,FINESTEERING,2404,600498.000,02000000,cdba,18018;SOL_COMPUTED,PPP,51.07900057132,-114.13253478964,1114.0391,-16.6001,WGS84,0.0187,0.0147,0.0391,"TSTR",18.000,0.000,32,31,31,30,00,00,ff,37*7fcd7848
#BESTPOSA,USB3,0,58.0,FINESTEERING,2404,600499.000,02000000,cdba,18018;SOL_COMPUTED,PPP,51.07900059027,-114.13253478768,1114.0425,-16.6001,WGS84,0.0190,0.0150,0.0395,"TSTR",19.000,0.000,33,31,31,30,00,00,ff,37*833087db
#BESTPOSA,USB3,0,60.5,FINESTEERING,2404,600500.000,02000000,cdba,18018;SOL_COMPUTED,PPP,51.07900058726,-114.13253477160,1114.0411,-16.6001,WGS84,0.0193,0.0152,0.0399,"TSTR",10.000,0.000,33,31,31,30,00,00,ff,37*5808982c
#BESTPOSA,USB3,0,60.0,FINESTEERING,2404,600501.000,02000000,cdba,18018;SOL_COMPUTED,PPP,51.07900057379,-114.13253479293,1114.0398,-16.6001,WGS84,0.0192,0.0153,0.0398,"TSTR",11.000,0.000,33,31,31,30,00,00,ff,37*d1e124ab
#BESTPOSA,USB3,0,44.0,FINESTEERING,2404,600502.000,02000000,cdba,18018;SOL_COMPUTED,PPP,51.07900054715,-114.13253478859,1114.0360,-16.6001,WGS84,0.0191,0.0155,0.0398,"TSTR",12.000,0.000,33,31,31,30,00,00,ff,37*2aab118b
#BESTPOSA,USB3,0,44.0,FINESTEERING,2404,600503.000,02000000,cdba,18018;SOL_COMPUTED,PPP,51.07900053303,-114.13253478386,1114.0318,-16.6001,WGS84,0.0191,0.0158,0.0399,"TSTR",13.000,0.000,33,31,31,30,00,00,ff,37*faee4687
#BESTPOSA,USB3,0,62.0,FINESTEERING,2404,600504.000,02000000,cdba,18018;SOL_COMPUTED,PPP,51.07900048661,-114.13253480123,1114.0242,-16.6001,WGS84,0.0192,0.0162,0.0402,"TSTR",14.000,0.000,33,31,31,30,00,00,ff,37*259195f4
#BESTPOSA,USB3,0,61.5,FINESTEERING,2404,600505.000,02000000,cdba,18018;SOL_COMPUTED,PPP,51.07900043869,-114.13253478907,1114.0167,-16.6001,WGS84,0.0193,0.0167,0.0406,"TSTR",15.000,0.000,33,31,31,30,00,00,ff,37*50939941
#BESTPOSA,USB3,0,61.5,FINESTEERING,2404,600506.000,02000000,cdba,18018;SOL_COMPUTED,PPP,51.07900038972,-114.13253476369,1114.0110,-16.6001,WGS84,0.0196,0.0173,0.0411,"TSTR",16.000,0.000,33,31,31,30,00,00,ff,37*1e24fd1a
#BESTPOSA,USB3,0,59.0,FINESTEERING,2404,600507.000,02000000,cdba,18018;SOL_COMPUTED,PPP,51.07900035489,-114.13253476129,1114.0044,-16.6001,WGS84,0.0200,0.0179,0.0417,"TSTR",17.000,0.000,33,31,31,30,00,00,ff,37*5cc66d53
#BESTPOSA,USB3,0,59.0,FINESTEERING,2404,600508.000,02000000,cdba,18018;SOL_COMPUTED,PPP,51.07900034146,-114.13253474991,1114.0016,-16.6001,WGS84,0.0205,0.0184,0.0423,"TSTR",18.000,0.000,33,31,31,30,00,00,ff,37*d4a45af2
#BESTPOSA,USB3,0,62.0,FINESTEERING,2404,600509.000,02000000,cdba,18018;SOL_COMPUTED,PPP,51.07900033408,-114.13253476746,1113.9991,-16.6001,WGS84,0.0209,0.0188,0.0429,"TSTR",19.000,0.000,33,31,31,30,00,00,ff,37*7ea8bee2
#BESTPOSA,USB3,0,60.5,FINESTEERING,2404,600510.000,02000000,cdba,18018;SOL_COMPUTED,PPP,51.07900032708,-114.13253476275,1113.9997,-16.6001,WGS84,0.0208,0.0188,0.0428,"TSTR",10.000,0.000,33,31,31,30,00,00,ff,37*2b1253bf
#BESTPOSA,USB3,0,46.5,FINESTEERING,2404,600511.000,02000000,cdba,18018;SOL_COMPUTED,PPP,51.07900031798,-114.13253476352,1113.9997,-16.6001,WGS84,0.0206,0.0186,0.0425,"TSTR",11.000,0.000,33,31,31,30,00,00,ff,37*dd319f93
#BESTPOSA,USB3,0,46.5,FINESTEERING,2404,600512.000,02000000,cdba,18018;SOL_COMPUTED,PPP,51.07900031526,-114.13253477037,1113.9995,-16.6001,WGS84,0.0203,0.0184,0.0422,"TSTR",12.000,0.000,34,31,31,30,00,00,ff,37*9b951e1b
#BESTPOSA,USB3,0,58.0,FINESTEERING,2404,600513.000,02000000,cdba,18018;SOL_COMPUTED,PPP,51.07900030779,-114.13253477283,1114.0013,-16.6001,WGS84,0.0201,0.0182,0.0418,"TSTR",13.000,0.000,34,31,31,30,00,00,ff,37*41c0ee2a
#BESTPOSA,USB3,0,61.0,FINESTEERING,2404,600514.000,02000000,cdba,18018;SOL_COMPUTED,PPP,51.07900030758,-114.13253477475,1114.0002,-16.6001,WGS84,0.0199,0.0181,0.0415,"TSTR",14.000,0.000,34,31,31,30,00,00,ff,37*d7f31598
#BESTPOSA,USB3,0,58.0,FINESTEERING,2404,600515.000,02000000,cdba,18018;SOL_COMPUTED,PPP,51.07900028659,-114.13253480678,1113.9987,-16.6001,WGS84,0.0198,0.0180,0.0413,"TSTR",15.000,0.000,34,31,31,30,00,00,ff,37*98689036
#BESTPOSA,USB3,0,58.0,FINESTEERING,2404,600516.000,02000000,cdba,18018;SOL_COMPUTED,PPP,51.07900027622,-114.13253482214,1113.9997,-16.6001,WGS84,0.0198,0.0181,0.0413,"TSTR",16.000,0.000,34,31,31,30,00,00,ff,37*b59034c9
#BESTPOSA,USB3,0,62.0,FINESTEERING,2404,600517.000,02000000,cdba,18018;SOL_COMPUTED,PPP,51.07900027808,-114.13253482939,1113.9980,-16.6001,WGS84,0.0201,0.0182,0.0415,"TSTR",17.000,0.000,34,31,31,30,00,00,ff,37*86358c2a
#BESTPOSA,USB3,0,59.0,FINESTEERING,2404,600518.000,02000000,cdba,18018;SOL_COMPUTED,PPP,51.07900027132,-114.13253482935,1113.9993,-16.6001,WGS84,0.0204,0.0184,0.0419,"TSTR",18.000,0.000,34,31,31,30,00,00,ff,37*a4617ee4
#BESTPOSA,USB3,0,59.0,FINESTEERING,2404,600519.000,02000000,cdba,18018;SOL_COMPUTED,PPP,51.07900029030,-114.13253484225,1114.0012,-16.6001,WGS84,0.0205,0.0185,0.0421,"TSTR",9.000,0.000,34,31,31,30,00,00,ff,37*0264ecc1
#BESTPOSA,USB3,0,62.0,FINESTEERING,2404,600520.000,02000000,cdba,18018;SOL_COMPUTED,PPP,51.07900029306,-114.13253484666,1114.0030,-16.6001,WGS84,0.0204,0.0184,0.0418,"TSTR",10.000,0.000,34,31,31,30,00,00,ff,37*6e497069
#BESTPOSA,USB3,0,45.5,FINESTEERING,2404,600521.000,02000000,cdba,18018;SOL_COMPUTED,PPP,51.07900029726,-114.13253485365,1114.0031,-16.6001,WGS84,0.0202,0.0183,0.0416,"TSTR",11.000,0.000,34,31,31,30,00,00,ff,37*b1b5811a
#BESTPOSA,USB3,0,45.5,FINESTEERING,2404,600522.000,02000000,cdba,18018;SOL_COMPUTED,PPP,51.07900030450,-114.13253482871,1114.0040,-16.6001,WGS84,0.0199,0.0181,0.0413,"TSTR",12.000,0.000,34,31,31,30,00,00,ff,37*43cf95e4
#BESTPOSA,USB3,0,59.5,FINESTEERING,2404,600523.000,02000000,cdba,18018;SOL_COMPUTED,PPP,51.07900031474,-114.13253484962,1114.0072,-16.6001,WGS84,0.0197,0.0180,0.0410,"TSTR",13.000,0.000,34,31,31,30,00,00,ff,37*23e96717
#BESTPOSA,USB3,0,59.5,FINESTEERING,2404,600524.000,02000000,cdba,18018;SOL_COMPUTED,PPP,51.07900033681,-114.13253484849,1114.0068,-16.6001,WGS84,0.0196,0.0179,0.0409,"TSTR",14.000,0.000,34,31,31,30,00,00,ff,37*a3057469
#BESTPOSA,USB3,0,61.5,FINESTEERING,2404,600525.000,02000000,cdba,18018;SOL_COMPUTED,PPP,51.07900035054,-114.13253485771,1114.0086,-16.6001,WGS84,0.0196,0.0180,0.0409,"TSTR",15.000,0.000,34,31,31,30,00,00,ff,37*d45468dc
#BESTPOSA,USB3,0,60.0,FINESTEERING,2404,600526.000,02000000,cdba,18018;SOL_COMPUTED,PPP,51.07900034995,-114.13253486291,1114.0080,-16.6001,WGS84,0.0198,0.0181,0.0412,"TSTR",16.000,0.000,34,31,31,30,00,00,ff,37*e419d977
#BESTPOSA,USB3,0,59.0,FINESTEERING,2404,600527.000,02000000,cdba,18018;SOL_COMPUTED,PPP,51.07900035803,-114.13253486956,1114.0100,-16.6001,WGS84,0.0201,0.0183,0.0416,"TSTR",17.000,0.000,34,31,31,30,00,00,ff,37*c3066159
#BESTPOSA,USB3,0,59.0,FINESTEERING,2404,600528.000,02000000,cdba,18018;SOL_COMPUTED,PPP,51.07900036562,-114.13253487877,1114.0096,-16.6001,WGS84,0.0205,0.0186,0.0420,"TSTR",18.000,0.000,34,31,31,30,00,00,ff,37*a67f1f20
#BESTPOSA,USB3,0,61.0,FINESTEERING,2404,600529.000,02000000,cdba,18018;SOL_COMPUTED,PPP,51.07900037562,-114.13253488837,1114.0117,-16.6001,WGS84,0.0206,0.0187,0.0421,"TSTR",9.000,0.000,34,31,31,30,00,00,ff,37*3af37dd6
#BESTPOSA,USB3,0,59.5,FINESTEERING,2404,600530.000,02000000,cdba,18018;SOL_COMPUTED,PPP,51.07900039832,-114.13253487573,1114.0078,-16.6001,WGS84,0.0203,0.0184,0.0414,"TSTR",10.000,0.000,34,31,31,30,00,00,ff,37*e03b941b
#BESTPOSA,USB3,0,43.0,FINESTEERING,2404,600531.000,02000000,cdba,18018;SOL_COMPUTED,PPP,51.07900043284,-114.13253484444,1114.0040,-16.6001,WGS84,0.0200,0.0180,0.0405,"TSTR",11.000,0.000,34,31,31,30,00,00,ff,37*6f9911d9
#BESTPOSA,USB3,0,43.0,FINESTEERING,2404,600532.000,02000000,cdba,18018;SOL_COMPUTED,PPP,51.07900049146,-114.13253480421,1114.0032,-16.6001,WGS84,0.0195,0.0174,0.0392,"TSTR",12.000,0.000,34,31,31,30,00,00,ff,37*a398504d
#BESTPOSA,USB3,0,59.5,FINESTEERING,2404,600533.000,02000000,cdba,18018;SOL_COMPUTED,PPP,51.07900054103,-114.13253478749,1114.0043,-16.6001,WGS84,0.0191,0.0168,0.0377,"TSTR",13.000,0.000,34,31,31,30,00,00,ff,37*bd4e611d
#BESTPOSA,USB3,0,57.5,FINESTEERING,2404,600534.000,02000000,cdba,18018;SOL_COMPUTED,PPP,51.07900059667,-114.13253472542,1114.0023,-16.6001,WGS84,0.0187,0.0161,0.0361,"TSTR",14.000,0.000,34,31,31,30,00,00,ff,37*cbc5ae7e
#BESTPOSA,USB3,0,57.5,FINESTEERING,2404,600535.000,02000000,cdba,18018;SOL_COMPUTED,PPP,51.07900065628,-114.13253471026,1114.0002,-16.6001,WGS84,0.0184,0.0156,0.0348,"TSTR",15.000,0.000,34,31,31,30,00,00,ff,37*23c1196c
#BESTPOSA,USB3,0,61.5,FINESTEERING,2404,600536.000,02000000,cdba,18018;SOL_COMPUTED,PPP,51.07900070778,-114.13253468338,1113.9993,-16.6001,WGS84,0.0184,0.0153,0.0339,"TSTR",16.000,0.000,34,31,31,30,00,00,ff,37*41e7a2f9
#BESTPOSA,USB3,0,61.5,FINESTEERING,2404,600537.000,02000000,cdba,18018;SOL_COMPUTED,PPP,51.07900074708,-114.13253466496,1113.9999,-16.6001,WGS84,0.0186,0.0152,0.0335,"TSTR",17.000,0.000,34,31,31,30,00,00,ff,37*526d184e
#BESTPOSA,USB3,0,61.5,FINESTEERING,2404,600538.000,02000000,cdba,18018;SOL_COMPUTED,PPP,51.07900077418,-114.13253466182,1113.9992,-16.6001,WGS84,0.0189,0.0153,0.0335,"TSTR",18.000,0.000,34,31,31,30,00,00,ff,37*e878f782
#BESTPOSA,USB3,0,62.0,FINESTEERING,2404,600539.000,02000000,cdba,18018;SOL_COMPUTED,PPP,51.07900078041,-114.13253467615,1114.0015,-16.6001,WGS84,0.0193,0.0156,0.0339,"TSTR",19.000,0.000,34,31,31,30,00,00,ff,37*69910b71
#BESTPOSA,USB3,0,60.0,FINESTEERING,2404,600540.000,02000000,cdba,18018;SOL_COMPUTED,PPP,51.07900076951,-114.13253466967,1113.9994,-16.6001,WGS84,0.0195,0.0157,0.0342,"TSTR",10.000,0.000,34,31,31,30,00,00,ff,37*7de247ac
#BESTPOSA,USB3,0,60.0,FINESTEERING,2404,600541.000,02000000,cdba,18018;SOL_COMPUTED,PPP,51.07900076700,-114.13253466564,1113.9983,-16.6001,WGS84,0.0192,0.0156,0.0339,"TSTR",11.000,0.000,34,31,31,30,00,00,ff,37*69b43d27
#BESTPOSA,USB3,0,45.0,FINESTEERING,2404,600542.000,02000000,cdba,18018;SOL_COMPUTED,PPP,51.07900077629,-114.13253467914,1113.9973,-16.6001,WGS84,0.0190,0.0154,0.0335,"TSTR",12.000,0.000,34,31,31,30,00,00,ff,37*24813f81
#BESTPOSA,USB3,0,45.0,FINESTEERING,2404,600543.000,02000000,cdba,18018;SOL_COMPUTED,PPP,51.07900078476,-114.13253469099,1113.9948,-16.6001,WGS84,0.0187,0.0152,0.0331,"TSTR",13.000,0.000,34,31,31,30,00,00,ff,37*ea403027
#BESTPOSA,USB3,0,62.5,FINESTEERING,2404,600544.000,02000000,cdba,18018;SOL_COMPUTED,PPP,51.07900078646,-114.13253470254,1113.9953,-16.6001,WGS84,0.0184,0.0150,0.0327,"TSTR",14.000,0.000,34,31,31,30,00,00,ff,37*c0f33f8a
#BESTPOSA,USB3,0,61.0,FINESTEERING,2404,600545.000,02000000,cdba,18018;SOL_COMPUTED,PPP,51.07900077761,-114.13253470362,1113.9944,-16.6001,WGS84,0.0182,0.0148,0.0324,"TSTR",15.000,0.000,32,31,31,30,00,00,ff,37*ca87235e
#BESTPOSA,USB3,0,60.0,FINESTEERING,2404,600546.000,02000000,cdba,18018;SOL_COMPUTED,PPP,51.07900077799,-114.13253470852,1113.9928,-16.6001,WGS84,0.0181,0.0148,0.0324,"TSTR",16.000,0.000,32,31,31,30,00,00,ff,37*6e0e3675
#BESTPOSA,USB3,0,59.5,FINESTEERING,2404,600547.000,02000000,cdba,18018;SOL_COMPUTED,PPP,51.07900077355,-114.13253471239,1113.9938,-16.6001,WGS84,0.0183,0.0149,0.0326,"TSTR",17.000,0.000,32,31,31,30,00,00,ff,37*98b4e0c2
#BESTPOSA,USB3,0,59.5,FINESTEERING,2404,600548.000,02000000,cdba,18018;SOL_COMPUTED,PPP,51.07900077842,-114.13253472693,1113.9930,-16.6001,WGS84,0.0185,0.0152,0.0330,"TSTR",18.000,0.000,32,31,31,30,00,00,ff,37*a4b07c01
#BESTPOSA,USB3,0,61.0,FINESTEERING,2404,600549.000,02000000,cdba,18018;SOL_COMPUTED,PPP,51.07900074479,-114.13253470005,1113.9928,-16.6001,WGS84,0.0189,0.0155,0.0335,"TSTR",19.000,0.000,32,31,31,30,00,00,ff,37*d9f64bcd
#BESTPOSA,USB3,0,61.0,FINESTEERING,2404,600550.000,02000000,cdba,18018;SOL_COMPUTED,PPP,51.07900074723,-114.13253472091,1113.9940,-16.6001,WGS84,0.0193,0.0158,0.0341,"TSTR",20.000,0.000,32,31,31,30,00,00,ff,37*687d1df0
#BESTPOSA,USB3,0,60.0,FINESTEERING,2404,600551.000,02000000,cdba,18018;SOL_COMPUTED,PPP,51.07900074818,-114.13253470475,1113.9909,-16.6001,WGS84,0.0198,0.0161,0.0348,"TSTR",21.000,0.000,32,31,31,30,00,00,ff,37*261bd3cf
#BESTPOSA,USB3,0,60.0,FINESTEERING,2404,600552.000,02000000,cdba,18018;SOL_COMPUTED,PPP,51.07900072881,-114.13253470375,1113.9931,-16.6001,WGS84,0.0196,0.0160,0.0345,"TSTR",12.000,0.000,32,31,31,30,00,00,ff,37*6b788237
#BESTPOSA,USB3,0,44.5,FINESTEERING,2404,600553.000,02000000,cdba,18018;SOL_COMPUTED,PPP,51.07900071892,-114.13253469765,1113.9886,-16.6001,WGS84,0.0194,0.0158,0.0343,"TSTR",13.000,0.000,32,31,31,30,00,00,ff,37*e21cbeb5
#BESTPOSA,USB3,0,44.5,FINESTEERING,2404,600554.000,02000000,cdba,18018;SOL_COMPUTED,PPP,51.07900070111,-114.13253472887,1113.9811,-16.6001,WGS84,0.0191,0.0156,0.0339,"TSTR",14.000,0.000,32,31,31,30,00,00,ff,37*dab64489
#BESTPOSA,USB3,0,61.0,FINESTEERING,2404,600555.000,02000000,cdba,18018;SOL_COMPUTED,PPP,51.07900068233,-114.13253471588,1113.9759,-16.6001,WGS84,0.0188,0.0153,0.0336,"TSTR",15.000,0.000,32,31,31,30,00,00,ff,37*767015bf
#BESTPOSA,USB3,0,61.0,FINESTEERING,2404,600556.000,02000000,cdba,18018;SOL_COMPUTED,PPP,51.07900063549,-114.13253472944,1113.9676,-16.6001,WGS84,0.0185,0.0151,0.0334,"TSTR",16.000,0.000,32,31,31,30,00,00,ff,37*76effa0e
#BESTPOSA,USB3,0,61.0,FINESTEERING,2404,600557.000,02000000,cdba,18018;SOL_COMPUTED,PPP,51.07900057996,-114.13253473904,1113.9612,-16.6001,WGS84,0.0184,0.0150,0.0333,"TSTR",17.000,0.000,32,31,31,30,00,00,ff,37*c1aff0d0
#BESTPOSA,USB3,0,63.0,FINESTEERING,2404,600558.000,02000000,cdba,18018;SOL_COMPUTED,PPP,51.07900054601,-114.13253474137,1113.9526,-16.6001,WGS84,0.0185,0.0150,0.0335,"TSTR",18.000,0.000,32,31,31,30,00,00,ff,37*bc6f8d54
#BESTPOSA,USB3,0,64.0,FINESTEERING,2404,600559.000,02000000,cdba,18018;SOL_COMPUTED,PPP,51.07900052645,-114.13253473419,1113.9463,-16.6001,WGS84,0.0187,0.0151,0.0339,"TSTR",19.000,0.000,32,31,31,30,00,00,ff,37*56d197b0
#BESTPOSA,USB3,0,61.5,FINESTEERING,2404,600560.000,02000000,cdba,18018;SOL_COMPUTED,PPP,51.07900050973,-114.13253471895,1113.9451,-16.6001,WGS84,0.0190,0.0154,0.0345,"TSTR",20.000,0.000,32,31,31,30,00,00,ff,37*04e7a95d
#BESTPOSA,USB3,0,61.5,FINESTEERING,2404,600561.000,02000000,cdba,18018;SOL_COMPUTED,PPP,51.07900050550,-114.13253470816,1113.9410,-16.6001,WGS84,0.0194,0.0157,0.0351,"TSTR",21.000,0.000,32,31,31,30,00,00,ff,37*c0ed4dac
#BESTPOSA,USB3,0,61.5,FINESTEERING,2404,600562.000,02000000,cdba,18018;SOL_COMPUTED,PPP,51.07900049336,-114.13253472776,1113.9463,-16.6001,WGS84,0.0193,0.0156,0.0350,"TSTR",12.000,0.000,32,31,31,30,00,00,ff,37*4c590fa6
#BESTPOSA,USB3,0,47.0,FINESTEERING,2404,600563.000,02000000,cdba,18018;SOL_COMPUTED,PPP,51.07900048755,-114.13253476283,1113.9522,-16.6001,WGS84,0.0191,0.0154,0.0351,"TSTR",13.000,0.000,32,31,31,30,00,00,ff,37*e5548cd3
#BESTPOSA,USB3,0,47.0,FINESTEERING,2404,600564.000,02000000,cdba,18018;SOL_COMPUTED,PPP,51.07900047650,-114.13253475388,1113.9638,-16.6001,WGS84,0.0189,0.0153,0.0352,"TSTR",14.000,0.000,32,31,31,30,00,00,ff,37*9061e603
#BESTPOSA,USB3,0,60.0,FINESTEERING,2404,600565.000,02000000,cdba,18018;SOL_COMPUTED,PPP,51.07900046426,-114.13253479256,1113.9755,-16.6001,WGS84,0.0188,0.0151,0.0355,"TSTR",15.000,0.000,32,31,31,30,00,00,ff,37*0d1f75eb
#BESTPOSA,USB3,0,59.5,FINESTEERING,2404,600566.000,02000000,cdba,18018;SOL_COMPUTED,PPP,51.07900046441,-114.13253483336,1113.9908,-16.6001,WGS84,0.0187,0.0150,0.0360,"TSTR",16.000,0.000,32,31,31,30,00,00,ff,37*56b1377e
#BESTPOSA,USB3,0,59.5,FINESTEERING,2404,600567.000,02000000,cdba,18018;SOL_COMPUTED,PPP,51.07900045684,-114.13253485165,1114.0068,-16.6001,WGS84,0.0188,0.0150,0.0367,"TSTR",17.000,0.000,32,31,31,30,00,00,ff,37*77f57be2
#BESTPOSA,USB3,0,62.0,FINESTEERING,2404,600568.000,02000000,cdba,18018;SOL_COMPUTED,PPP,51.07900044942,-114.13253489033,1114.0181,-16.6001,WGS84,0.0190,0.0151,0.0374,"TSTR",18.000,0.000,32,31,31,30,00,00,ff,37*b9ab54e7
#BESTPOSA,USB3,0,60.5,FINESTEERING,2404,600569.000,02000000,cdba,18018;SOL_COMPUTED,PPP,51.07900042455,-114.13253487335,1114.0260,-16.6001,WGS84,0.0193,0.0153,0.0383,"TSTR",19.000,0.000,32,31,31,30,00,00,ff,37*e057b60e
#BESTPOSA,USB3,0,59.5,FINESTEERING,2404,600570.000,02000000,cdba,18018;SOL_COMPUTED,PPP,51.07900034596,-114.13253491904,1114.0461,-16.6001,WGS84,0.0198,0.0156,0.0391,"TSTR",20.000,0.000,32,31,31,30,00,00,ff,37*ea6a0812
#BESTPOSA,USB3,0,59.5,FINESTEERING,2404,600571.000,02000000,cdba,18018;SOL_COMPUTED,PPP,51.07900033666,-114.13253492112,1114.0506,-16.6001,WGS84,0.0197,0.0155,0.0391,"TSTR",11.000,0.000,32,31,31,29,00,00,ff,37*8ba5b0c1
#BESTPOSA,USB3,0,44.0,FINESTEERING,2404,600572.000,02000000,cdba,18018;SOL_COMPUTED,PPP,51.07900036388,-114.13253492279,1114.0483,-16.6001,WGS84,0.0195,0.0154,0.0389,"TSTR",12.000,0.000,32,31,31,29,00,00,ff,37*7a34c97f
#BESTPOSA,USB3,0,44.0,FINESTEERING,2404,600573.000,02000000,cdba,18018;SOL_COMPUTED,PPP,51.07900037035,-114.13253495653,1114.0471,-16.6001,WGS84,0.0194,0.0152,0.0386,"TSTR",13.000,0.000,32,31,31,29,00,00,ff,37*5b53e158
#BESTPOSA,USB3,0,61.0,FINESTEERING,2404,600574.000,02000000,cdba,18018;SOL_COMPUTED,PPP,51.07900035522,-114.13253503045,1114.0372,-16.6001,WGS84,0.0193,0.0151,0.0385,"TSTR",14.000,0.000,32,31,31,30,00,00,ff,37*38f8708a
#BESTPOSA,USB3,0,59.5,FINESTEERING,2404,600575.000,02000000,cdba,18018;SOL_COMPUTED,PPP,51.07900035208,-114.13253503147,1114.0362,-16.6001,WGS84,0.0193,0.0150,0.0385,"TSTR",15.000,0.000,32,31,31,30,00,00,ff,37*abdf4b97
#BESTPOSA,USB3,0,57.5,FINESTEERING,2404,600576.000,02000000,cdba,18018;SOL_COMPUTED,PPP,51.07900033467,-114.13253504710,1114.0358,-16.6001,WGS84,0.0194,0.0150,0.0386,"TSTR",16.000,0.000,32,31,31,30,00,00,ff,37*bcb455ad
#BESTPOSA,USB3,0,57.5,FINESTEERING,2404,600577.000,02000000,cdba,18018;SOL_COMPUTED,PPP,51.07900033336,-114.13253507507,1114.0355,-16.6001,WGS84,0.0196,0.0152,0.0389,"TSTR",17.000,0.000,32,31,31,30,00,00,ff,37*5379bbc3
#BESTPOSA,USB3,0,59.0,FINESTEERING,2404,600578.000,02000000,cdba,18018;SOL_COMPUTED,PPP,51.07900034339,-114.13253508187,1114.0325,-16.6001,WGS84,0.0200,0.0154,0.0393,"TSTR",18.000,0.000,32,31,31,30,00,00,ff,37*4073b5ab
#BESTPOSA,USB3,0,61.0,FINESTEERING,2404,600579.000,02000000,cdba,18018;SOL_COMPUTED,PPP,51.07900033030,-114.13253510712,1114.0298,-16.6001,WGS84,0.0204,0.0157,0.0398,"TSTR",19.000,0.000,32,31,31,30,00,00,ff,37*4d91e88d
#BESTPOSA,USB3,0,60.5,FINESTEERING,2404,600580.000,02000000,cdba,18018;SOL_COMPUTED,PPP,51.07900033241,-114.13253511171,1114.0273,-16.6001,WGS84,0.0202,0.0156,0.0396,"TSTR",10.000,0.000,32,31,31,30,00,00,ff,37*c9e56712
#BESTPOSA,USB3,0,46.0,FINESTEERING,2404,600581.000,02000000,cdba,18018;SOL_COMPUTED,PPP,51.07900033656,-114.13253510014,1114.0279,-16.6001,WGS84,0.0200,0.0154,0.0393,"TSTR",11.000,0.000,32,31,31,30,00,00,ff,37*55266d69
#BESTPOSA,USB3,0,46.0,FINESTEERING,2404,600582.000,02000000,cdba,18018;SOL_COMPUTED,PPP,51.07900032588,-114.13253509557,1114.0260,-16.6001,WGS84,0.0196,0.0152,0.0390,"TSTR",12.000,0.000,32,31,31,30,00,00,ff,37*88ce893a
#BESTPOSA,USB3,0,54.0,FINESTEERING,2404,600583.000,02000000,cdba,18018;SOL_COMPUTED,PPP,51.07900033024,-114.13253506614,1114.0201,-16.6001,WGS84,0.0193,0.0150,0.0386,"TSTR",13.000,0.000,32,31,31,30,00,00,ff,37*3f63561d
#BESTPOSA,USB3,0,57.5,FINESTEERING,2404,600584.000,02000000,cdba,18018;SOL_COMPUTED,PPP,51.07900033558,-114.13253505070,1114.0169,-16.6001,WGS84,0.0190,0.0148,0.0383,"TSTR",14.000,0.000,32,31,31,30,00,00,ff,37*9e841d9b
#BESTPOSA,USB3,0,58.5,FINESTEERING,2404,600585.000,02000000,cdba,18018;SOL_COMPUTED,PPP,51.07900031167,-114.13253503277,1114.0130,-16.6001,WGS84,0.0188,0.0147,0.0382,"TSTR",15.000,0.000,32,31,31,30,00,00,ff,37*50219e90
#BESTPOSA,USB3,0,60.5,FINESTEERING,2404,600586.000,02000000,cdba,18018;SOL_COMPUTED,PPP,51.07900030549,-114.13253502462,1114.0114,-16.6001,WGS84,0.0188,0.0148,0.0382,"TSTR",16.000,0.000,32,31,31,30,00,00,ff,37*7d3e10ae
#BESTPOSA,USB3,0,60.5,FINESTEERING,2404,600587.000,02000000,cdba,18018;SOL_COMPUTED,PPP,51.07900031781,-114.13253500180,1114.0067,-16.6001,WGS84,0.0189,0.0150,0.0385,"TSTR",17.000,0.000,32,31,31,30,00,00,ff,37*1c8bbc10
#BESTPOSA,USB3,0,61.0,FINESTEERING,2404,600588.000,02000000,cdba,18018;SOL_COMPUTED,PPP,51.07900030420,-114.13253501689,1114.0094,-16.6001,WGS84,0.0192,0.0152,0.0389,"TSTR",18.000,0.000,32,31,31,30,00,00,ff,37*ecd1a318
#BESTPOSA,USB3,0,62.5,FINESTEERING,2404,600589.000,02000000,cdba,18018;SOL_COMPUTED,PPP,51.07900032772,-114.13253499748,1114.0070,-16.6001,WGS84,0.0190,0.0151,0.0384,"TSTR",9.000,0.000,32,31,31,30,00,00,ff,37*76e634ac
